{"table":[{"title":"場館","position":{"lat":null,"lng":null}},{"title":"奧林匹克體育場","position":{"lat":35.679261,"lng":139.715002}},{"title":"東京體育館","position":{"lat":35.680307,"lng":139.712598}},{"title":" 國立代代木體育館","position":{"lat":35.668317,"lng":139.699786}},{"title":"日本武道館","position":{"lat":35.693561,"lng":139.749928}},{"title":"皇居外苑","position":{"lat":35.677198,"lng":139.758679}},{"title":"東京國際論壇","position":{"lat":35.676884,"lng":139.764343}},{"title":"國技館","position":{"lat":35.697185,"lng":139.793297}},{"title":"有明競技場","position":{"lat":35.636615,"lng":139.790196}},{"title":"有明BMX","position":{"lat":35.64028,"lng":139.78661}},{"title":"有明場地賽場","position":{"lat":0,"lng":0}},{"title":"有明體操競技場","position":{"lat":35.642357,"lng":139.790508}},{"title":"有明森林網球場","position":{"lat":35.635959,"lng":139.786979}},{"title":"台場海濱公園","position":{"lat":35.630947,"lng":139.775991}},{"title":"潮風公園","position":{"lat":35.624165,"lng":139.768752}},{"title":"東京國際展示場A館","position":{"lat":35.630019,"lng":139.794216}},{"title":"16. 東京國際展示場B館：","position":{"lat":35.630019,"lng":139.794216}},{"title":"17. 大井曲棍球競技場：","position":{"lat":0,"lng":0}},{"title":"18. 海之森越野賽場：","position":{"lat":0,"lng":0}},{"title":"19. 海之森水上競技場：","position":{"lat":0,"lng":0}},{"title":"20. 海之森山地賽場：","position":{"lat":0,"lng":0}},{"title":"21. 若洲奧林匹克濱海碼頭：","position":{"lat":0,"lng":0}},{"title":"22. 葛西臨海公園：","position":{"lat":35.641927,"lng":139.860317}},{"title":"23. 夢之島青年廣場體育館A：","position":{"lat":0,"lng":0}},{"title":"24. 夢之島青年廣場體育館B：","position":{"lat":0,"lng":0}},{"title":"25. 夢之島公園：","position":{"lat":35.651368,"lng":139.827799}},{"title":"26. 夢之島體育場：","position":{"lat":35.648828,"lng":139.823551}},{"title":"27. 奧林匹克水上運動中心：","position":{"lat":0,"lng":0}},{"title":"28. 東京辰巳国際水泳場：","position":{"lat":35.647869,"lng":139.819007}},{"title":"29. 武藏野之森綜合體育設施：","position":{"lat":0,"lng":0}},{"title":"30. 東京體育場：","position":{"lat":35.664566,"lng":139.527215}},{"title":"31. 武藏野之森公園：","position":{"lat":35.6753,"lng":139.523825}},{"title":"32. 陸上自衛隊朝霞訓練場：","position":{"lat":35.785067,"lng":139.600189}},{"title":"33. 霞關鄉村俱樂部","position":{"lat":35.9016,"lng":139.404327}},{"title":"34. 札幌巨蛋","position":{"lat":43.016026,"lng":141.409561}},{"title":"35. 宮城體育場","position":{"lat":38.335653,"lng":140.951853}},{"title":"36. 埼玉2002體育場","position":{"lat":35.903386,"lng":139.717576}},{"title":"37. 橫濱國際綜合競技場","position":{"lat":35.510086,"lng":139.606426}}]}